{"type":"FeatureCollection","features":[{"type":"Feature","properties":{"name":"335 Lakeview Ave","city":"Excelsior, MN","demand":3,"zip":55331},"geometry":{"type":"Point","coordinates":[-93.57696008,44.9135229]}},{"type":"Feature","properties":{"name":"824 Lake Street East","city":"Wayzata, MN","demand":4,"zip":55391},"geometry":{"type":"Point","coordinates":[-93.50757154,44.96795991]}},{"type":"Feature","properties":{"name":"595 Locust Hills Dr,","city":"Wayzata, MN","demand":2,"zip":55391},"geometry":{"type":"Point","coordinates":[-93.4956,44.9593]}},{"type":"Feature","properties":{"name":"2521 Cross Point Road","city":"Wayzata, MN","demand":2,"zip":55391},"geometry":{"type":"Point","coordinates":[-93.58208,44.93635]}},{"type":"Feature","properties":{"name":"18352 Minnetonka Boulevard","city":"Wayzata, MN","demand":6,"zip":55391},"geometry":{"type":"Point","coordinates":[-93.51298,44.93937]}},{"type":"Feature","properties":{"name":"20 Orono Orchard Road","city":"Orono, MN","demand":4,"zip":55391},"geometry":{"type":"Point","coordinates":[-93.5602,44.97887]}},{"type":"Feature","properties":{"name":"339 Second Street","city":"Excelsior, MN","demand":6,"zip":55331},"geometry":{"type":"Point","coordinates":[-93.56694,44.90418]}},{"type":"Feature","properties":{"name":"1600 Bohns Point Road","city":"Wayzata, MN","demand":4,"zip":55391},"geometry":{"type":"Point","coordinates":[-93.60375,44.94881]}},{"type":"Feature","properties":{"name":"700 E Lake Street","city":"Wayzata, MN","demand":10,"zip":55391},"geometry":{"type":"Point","coordinates":[-93.5112,44.96891]}},{"type":"Feature","properties":{"name":"20605 Carson Road","city":"Excelsior, MN","demand":4,"zip":55331},"geometry":{"type":"Point","coordinates":[-93.54412,44.92386]}},{"type":"Feature","properties":{"name":"21930 Minnetonka Blvd.","city":"Excelsior, MN","demand":4,"zip":55331},"geometry":{"type":"Point","coordinates":[-93.55892,44.90702]}},{"type":"Feature","properties":{"name":"228 Schlavin Court","city":"Lino Lakes, MN","demand":2,"zip":55014},"geometry":{"type":"Point","coordinates":[-93.13283,45.12994]}},{"type":"Feature","properties":{"name":"350 Idaho Avenue N.","city":"Golden Valley, MN","demand":4,"zip":55427},"geometry":{"type":"Point","coordinates":[-93.36541,44.98182]}},{"type":"Feature","properties":{"name":"130 Spur Circle","city":"Wayzata, MN","demand":2,"zip":55391},"geometry":{"type":"Point","coordinates":[-93.52345,45.0098]}},{"type":"Feature","properties":{"name":"15250 Wayzata Blvd","city":"Wayzata, MN","demand":6,"zip":55391},"geometry":{"type":"Point","coordinates":[-93.47276,44.97204]}},{"type":"Feature","properties":{"name":"2431 Lorien Street","city":"Minnetonka, MN","demand":6,"zip":55305},"geometry":{"type":"Point","coordinates":[-93.43441,44.95675]}},{"type":"Feature","properties":{"name":"3511 Lake Elmo Avenue N","city":"Lake Elmo, MN","demand":8,"zip":55042},"geometry":{"type":"Point","coordinates":[-92.87981,44.99981]}},{"type":"Feature","properties":{"name":"4906 Dempsey Ave NW","city":"Buffalo, MN","demand":5,"zip":55313},"geometry":{"type":"Point","coordinates":[-93.94731,45.22085]}},{"type":"Feature","properties":{"name":"2209 Meeting Street","city":"Wayzata, MN","demand":2,"zip":55391},"geometry":{"type":"Point","coordinates":[-93.46231,44.96119]}},{"type":"Feature","properties":{"name":"11 Apple Orchard Court","city":"Dellwood, MN","demand":4,"zip":55110},"geometry":{"type":"Point","coordinates":[-92.95803,45.10913]}},{"type":"Feature","properties":{"name":"3112 Donnelly Drive NW","city":"Maple Lake, MN","demand":2,"zip":55358},"geometry":{"type":"Point","coordinates":[-93.95283,45.23378]}},{"type":"Feature","properties":{"name":"6640 Crofoot Ave NW","city":"Maple Lake, MN","demand":6,"zip":55358},"geometry":{"type":"Point","coordinates":[-93.9419409,45.2467365]}},{"type":"Feature","properties":{"name":"15001 Linner Ridge","city":"Wayzata, MN","demand":2,"zip":55391},"geometry":{"type":"Point","coordinates":[-93.46968,44.96457]}},{"type":"Feature","properties":{"name":"11140 Hwy 55 A","city":"Plymouth, MN","demand":6,"zip":55441},"geometry":{"type":"Point","coordinates":[-93.42091,44.98856]}},{"type":"Feature","properties":{"name":"6 Apple Orchard Ct.","city":"White Bear Lake, MN","demand":4,"zip":55110},"geometry":{"type":"Point","coordinates":[-92.95868,45.10629]}},{"type":"Feature","properties":{"name":"512 Janalyn Circle","city":"Golden Valley, MN","demand":4,"zip":55416},"geometry":{"type":"Point","coordinates":[-93.33421,44.97402]}},{"type":"Feature","properties":{"name":"402 River Street","city":"Minneapolis, MN","demand":4,"zip":55401},"geometry":{"type":"Point","coordinates":[-93.26995,44.9886]}},{"type":"Feature","properties":{"name":"7513 Washington AveS","city":"Edina, MN","demand":6,"zip":55439},"geometry":{"type":"Point","coordinates":[-93.39805603,44.86638555]}},{"type":"Feature","properties":{"name":"125 Lake St. W.","city":"Wayzata, MN","demand":4,"zip":55391},"geometry":{"type":"Point","coordinates":[-93.52454,44.9707]}},{"type":"Feature","properties":{"name":"15 Division Street E","city":"Buffalo, MN","demand":6,"zip":55313},"geometry":{"type":"Point","coordinates":[-93.87533,45.17229]}},{"type":"Feature","properties":{"name":"11313 Trillium Lane North","city":"Champlin, MN","demand":4,"zip":55316},"geometry":{"type":"Point","coordinates":[-93.40279,45.15889]}},{"type":"Feature","properties":{"name":"8644 Great Waters Alcove","city":"Eden Prairie, MN","demand":3,"zip":55347},"geometry":{"type":"Point","coordinates":[-93.51246,44.84724]}},{"type":"Feature","properties":{"name":"10135 47th Ave N","city":"Plymouth, MN","demand":4,"zip":55442},"geometry":{"type":"Point","coordinates":[-93.40927,45.03919]}},{"type":"Feature","properties":{"name":"2 Merilane Ave","city":"Edina, MN","demand":4,"zip":55436},"geometry":{"type":"Point","coordinates":[-93.3687824,44.9167783]}},{"type":"Feature","properties":{"name":"3241 Flag Ave S","city":"St. Louis Park, MN","demand":4,"zip":55426},"geometry":{"type":"Point","coordinates":[-93.39617,44.94402]}},{"type":"Feature","properties":{"name":"4601 Browndale Ave.","city":"Edina, MN","demand":3,"zip":55424},"geometry":{"type":"Point","coordinates":[-93.34341,44.91623]}},{"type":"Feature","properties":{"name":"6306 McIntyre Pointe","city":"Edina, MN","demand":4,"zip":55439},"geometry":{"type":"Point","coordinates":[-93.39439,44.88855]}},{"type":"Feature","properties":{"name":"6908 Gleason Road","city":"Edina, MN","demand":4,"zip":55439},"geometry":{"type":"Point","coordinates":[-93.38364,44.87719]}},{"type":"Feature","properties":{"name":"4906 Lincoln Drive","city":"Edina, MN","demand":12,"zip":55436},"geometry":{"type":"Point","coordinates":[-93.40008,44.91484]}},{"type":"Feature","properties":{"name":"5500 Lincoln Drive","city":"Edina, MN","demand":6,"zip":55436},"geometry":{"type":"Point","coordinates":[-93.39974,44.90294]}},{"type":"Feature","properties":{"name":"4704 Merilane Avenue","city":"Edina, MN","demand":4,"zip":55436},"geometry":{"type":"Point","coordinates":[-93.37068,44.91833]}},{"type":"Feature","properties":{"name":"6109 Oaklawn Avenue","city":"Edina, MN","demand":4,"zip":55424},"geometry":{"type":"Point","coordinates":[-93.33618,44.89229]}},{"type":"Feature","properties":{"name":"7217 Fleetwood Drive","city":"Edina, MN","demand":2,"zip":55439},"geometry":{"type":"Point","coordinates":[-93.37067,44.87161]}},{"type":"Feature","properties":{"name":"5905 Fairfax Ave.","city":"Edina, MN","demand":6,"zip":55424},"geometry":{"type":"Point","coordinates":[-93.34005,44.89598]}},{"type":"Feature","properties":{"name":"7105 Antrim Court","city":"Edina, MN","demand":2,"zip":55439},"geometry":{"type":"Point","coordinates":[-93.37333,44.87422]}},{"type":"Feature","properties":{"name":"5509 Kellogg Avenue","city":"Edina, MN","demand":5,"zip":55424},"geometry":{"type":"Point","coordinates":[-93.33753,44.903]}},{"type":"Feature","properties":{"name":"9600 Upton Road","city":"Bloomington, MN","demand":4,"zip":55431},"geometry":{"type":"Point","coordinates":[-93.31409,44.83081]}},{"type":"Feature","properties":{"name":"2460 Morson Circle","city":"Mendota Heights, MN","demand":2,"zip":55120},"geometry":{"type":"Point","coordinates":[-93.1108,44.86685]}},{"type":"Feature","properties":{"name":"357 Salem Church Road","city":"Sun Fish Lake, MN","demand":4,"zip":55118},"geometry":{"type":"Point","coordinates":[-93.10015,44.87328]}}]}